[
  {
    "name": "none",
    "county": "-",
    "state": "AK",
    "location": "(GNIS/2004)",
    "history": "-"
  },
  {
    "name": "Harlan (historical locale)",
    "county": "Clay",
    "state": "AL",
    "location": "330712N/0854557W (GNIS 2004)",
    "history": "-"
  },
  {
    "name": "Harlan School",
    "county": "Covington",
    "state": "AL",
    "location": "310057N/0862127W (GNIS 2004)",
    "history": "-"
  },
  {
    "name": "Harlan School",
    "county": "Lauderdale",
    "state": "AL",
    "location": "344957N/0874058W (GNIS 2004)",
    "history": "-"
  },
  {
    "name": "Harlan Park Assembly of God Church",
    "county": "Faulkner",
    "state": "AR",
    "location": "In town of Conway.",
    "history": "-"
  },
  {
    "name": "none",
    "county": "-",
    "state": "AR",
    "location": "(GNIS/2004)",
    "history": "-"
  },
  {
    "name": "none",
    "county": "-",
    "state": "AZ",
    "location": "(GNIS/2004)",
    "history": "-"
  },
  {
    "name": "Harlan Drive",
    "county": "Contra Costa ?",
    "state": "CA",
    "location": "Danville, off Greenbrook Drive and curves around to St. Christopher's Drive.",
    "history": "Named for Joel Harlan (#2992) (1828-1875) and his descendents."
  },
  {
    "name": "Harlan Street",
    "county": "Alameda ?",
    "state": "CA",
    "location": "San Leandro. Runs between San Leandro Boulevard and East 14th Street.",
    "history": "?"
  },
  {
    "name": "Harlan Place (alley)",
    "county": "San Francisco",
    "state": "CA",
    "location": "Off Grant Avenue, just a few blocks north of Union Square.",
    "history": "Named for George Harlan (#852) (1802-1850). (San Francisco Street Names by Henry C. Carlisle)"
  },
  {
    "name": "Harlan Cabin (historical)",
    "county": "Monterey",
    "state": "CA",
    "location": "Southwest of Avenal.",
    "history": "-"
  },
  {
    "name": "Harlan Hall (building)",
    "county": "Marin",
    "state": "CA",
    "location": "Southeast of San Anselmo. (www.melissadata.com)",
    "history": "-"
  },
  {
    "name": "Harlan Ranch",
    "county": "Monterey",
    "state": "CA",
    "location": "and \"Harlan Cabin.",
    "history": "-"
  },
  {
    "name": "Harlan Canyon (valley)",
    "county": "Riverside",
    "state": "CA",
    "location": "333839N/1172245W (GNIS/2004). Near Lakeland Village.",
    "history": "-"
  },
  {
    "name": "Harlan Creek",
    "county": "San Benito",
    "state": "CA",
    "location": "364220N/1212205W (GNIS/2004). South of Hollister.",
    "history": "-"
  },
  {
    "name": "Harlan Davis Canyon",
    "county": "Siskiyou",
    "state": "CA",
    "location": "414041N/1220112W (GNIS/2004). Northeast of Weed.",
    "history": "-"
  },
  {
    "name": "Harlan Hill",
    "county": "Contra Costa",
    "state": "CA",
    "location": "374411N/1215854W (GNIS/2004). West of San Ramon.",
    "history": "Named for Joel Harlan (#2992) (1828-1875)."
  },
  {
    "name": "Harlan Ranch",
    "county": "Fresno",
    "state": "CA",
    "location": "364155N/1190805W (GNIS/2004).\nJust east of Squaw Valley.",
    "history": "-"
  },
  {
    "name": "Harlan Rock (island)",
    "county": "Monterey",
    "state": "CA",
    "location": "360040N/1213203W (GNIS/2004).\nOn the coast.",
    "history": "Possibly named for Wilbur Judson Harlan (not in book)"
  },
  {
    "name": "Harlan Spring",
    "county": "Monterey",
    "state": "CA",
    "location": "54850N/1202645W (GNIS/2004). Southeast corner of county. See also \"Harlan Cabin.",
    "history": "-"
  },
  {
    "name": "Harlan Stevens Ditch (canal)",
    "county": "Fresno",
    "state": "CA",
    "location": "363401N/1194729W (GNIS/2004). South of Easton.",
    "history": "-"
  },
  {
    "name": "Mount Harlan",
    "county": "San Benito",
    "state": "CA",
    "location": "64151N/1212415W (GNIS/2004).\nSouth of Hollister. See also \"Harlan Creek.",
    "history": "-"
  },
  {
    "name": "Harlan Avenue",
    "county": "Fresno",
    "state": "CA",
    "location": "Runs east and west from Highway 41. East Harlan Ave. end just NE of Laton. West Harlan Ave. end I-5.",
    "history": "Elisha Harlan (#2995) (1838-1919) homesteaded just NE of Riverdale. Between S. Fruit Ave. and S. Marks Ave."
  },
  {
    "name": "Harlan Road",
    "county": "San Joaquin",
    "state": "CA",
    "location": "S. Harlan Road runs south from French Camp to Lathrop.",
    "history": "Probably named for Jacob Wright Harlan (#2984) (1828-1902) who owned the ferry on the San Joanquin River south of Stockton during the 1850's."
  },
  {
    "name": "Harlan Ditch (canal)",
    "county": "Park",
    "state": "CO",
    "location": "391849N/1055105W (GNSI 2004)",
    "history": "-"
  },
  {
    "name": "Harlan Gulch (valley)",
    "county": "Larimer",
    "state": "CO",
    "location": "403749N/1052151W (GNIS 2004)",
    "history": "-"
  },
  {
    "name": "Harland Cabin (locale)",
    "county": "Moffat",
    "state": "CO",
    "location": "402623N/1090102W (GNIS 2004)",
    "history": "-"
  },
  {
    "name": "none",
    "county": "-",
    "state": "CT",
    "location": "(GNIS/2004)",
    "history": "-"
  },
  {
    "name": "none",
    "county": "-",
    "state": "CT",
    "location": "(GNIS/2004)",
    "history": "-"
  },
  {
    "name": "none",
    "county": "-",
    "state": "DC",
    "location": "(GNIS/2004)",
    "history": "-"
  },
  {
    "name": "David W. Harlan Elementary School",
    "county": "New Castle",
    "state": "DE",
    "location": "394546N/0753149W (GNIS 2004)",
    "history": "Possibly named for David Wilson Harlan (#9228) (1835-1900) who taught school in Wilmington."
  },
  {
    "name": "Lake Harlan",
    "county": "Volusia",
    "state": "FL",
    "location": "285850N/0811334W (GNIS 2004)",
    "history": "-"
  },
  {
    "name": "none",
    "county": "-",
    "state": "GA",
    "location": "(GNIS/2004)",
    "history": "-"
  },
  {
    "name": "none",
    "county": "-",
    "state": "HI",
    "location": "(GNIS/2004)",
    "history": "-"
  },
  {
    "name": "Harlan Cemetery",
    "county": "Butler",
    "state": "IA",
    "location": "424559N/0930052W (GNIS 2004)",
    "history": "-"
  },
  {
    "name": "Harlan Junction",
    "county": "Pottawattamie",
    "state": "IA",
    "location": "412953N/0952148W (GNIS 2004).\nNear Avoca.",
    "history": "-"
  },
  {
    "name": "Harlan School",
    "county": "Story",
    "state": "IA",
    "location": "420118N/0933918W (GNIS 2004)",
    "history": "-"
  },
  {
    "name": "Harlan",
    "county": "Shelby",
    "state": "IA",
    "location": "413911N/095193W (GNIS 2004). Population 5148 (1990).",
    "history": "Harlan has been county seat since 1859. Named in honor of Senator James Harlan (#2297) (1820-1899)."
  },
  {
    "name": "Harlan Trailer Court",
    "county": "Shelby",
    "state": "IA",
    "location": "In town of Harlan. (gazetteer.hometownlocator.com)",
    "history": "-"
  },
  {
    "name": "Harlan Cemetery",
    "county": "Butler",
    "state": "IA",
    "location": "Northwest of Dumont.",
    "history": "-"
  },
  {
    "name": "Harlan Rogers Park",
    "county": "Webster",
    "state": "IA",
    "location": "North of Fort Dodge.",
    "history": "-"
  },
  {
    "name": "Harlan School",
    "county": "Fayette",
    "state": "IA",
    "location": "North edge of Oelwein.",
    "history": "-"
  },
  {
    "name": "Harlan (township)",
    "county": "Fayette",
    "state": "IA",
    "location": "Near Maynard.",
    "history": "-"
  },
  {
    "name": "Harlan (township)",
    "county": "Page",
    "state": "IA",
    "location": "Southwest of Clarinda.",
    "history": "-"
  },
  {
    "name": "Harland Park",
    "county": "Palo Alto",
    "state": "IA",
    "location": "Northwest side of Emmetsburg.",
    "history": "-"
  },
  {
    "name": "Harlan-Lincoln House (building)",
    "county": "Henry",
    "state": "IA",
    "location": "Town of Mount Pleasant.",
    "history": "Home of U.S. Senator James Harlan. (Harlan Family web site.)"
  },
  {
    "name": "Harlan Township",
    "county": "Shelby",
    "state": "IA",
    "location": "-",
    "history": "Township constituted September 3, 1860. The county seat, Harlan, is within township."
  },
  {
    "name": "Harlan Creek",
    "county": "Clearwater",
    "state": "ID",
    "location": "464537N/1154134W (GNIS 2004)",
    "history": "-"
  },
  {
    "name": "Harlan Creek",
    "county": "Custer",
    "state": "ID",
    "location": "443330N/1150656W (GNIS 2004)",
    "history": "-"
  },
  {
    "name": "Harlan Creek",
    "county": "Idaho",
    "state": "ID",
    "location": "453106N/1151525W (GNIS 2004)",
    "history": "-"
  },
  {
    "name": "Harlan Meadows",
    "county": "Idaho",
    "state": "ID",
    "location": "452904N/1151354W (GNIS 2004)",
    "history": "-"
  },
  {
    "name": "Harlan High School",
    "county": "Cook",
    "state": "IL",
    "location": "414305N/0873716W (GNIS 2004)",
    "history": "-"
  },
  {
    "name": "Harlan Hall (building)",
    "county": "Clark",
    "state": "IL",
    "location": "Town of Marshall.",
    "history": "Howard Harlan (#5737) (1832-?) built the building that is on the National Register of Historic Places. (Harlan Family web site.)"
  },
  {
    "name": "Harlan Church",
    "county": "Hancock",
    "state": "IN",
    "location": "395459N/0853651W (GNIS 2004).\nNorth of Shirley.",
    "history": "-"
  },
  {
    "name": "Harlan Run",
    "county": "Hancock",
    "state": "IN",
    "location": "395440N/0853726W (GNIS 2004)",
    "history": "-"
  },
  {
    "name": "Harlan",
    "county": "Allen",
    "state": "IN",
    "location": "411146N/0845511W (GNIS 2004)",
    "history": "-"
  },
  {
    "name": "Harlansburg",
    "county": "Huntington",
    "state": "IN",
    "location": "404852N/0853352W (GNIS 2004)",
    "history": "-"
  },
  {
    "name": "Harrison-Harlan Ditch",
    "county": "Howard",
    "state": "IN",
    "location": "403127N/0861247W (GNIS 2004)",
    "history": "-"
  },
  {
    "name": "Harlan Cemetery",
    "county": "Allen",
    "state": "IN",
    "location": "(old) east of Harlan and \"Harlan Memorial Cemetery (new) southwest of Harlan.",
    "history": "-"
  },
  {
    "name": "Harlan County Lake",
    "county": "Phillips",
    "state": "KS",
    "location": "395949N/0992059W (GNIS 2004)",
    "history": "-"
  },
  {
    "name": "Harlan",
    "county": "Smith",
    "state": "KS",
    "location": "393620N/0984600W (GNIS 2004)",
    "history": "-"
  },
  {
    "name": "Harlan (township)",
    "county": "Decatur",
    "state": "KS",
    "location": "Northeast of Oberlin.",
    "history": "-"
  },
  {
    "name": "Harlan (township)",
    "county": "Smith",
    "state": "KS",
    "location": "Southeast of Gaylord.",
    "history": "-"
  },
  {
    "name": "Harlan Branch (stream)",
    "county": "Owsley",
    "state": "KY",
    "location": "372115N/0834412W (GNIS 2004)",
    "history": "-"
  },
  {
    "name": "Harlan Crossroads (road)",
    "county": "Monroe",
    "state": "KY",
    "location": "363911N/0854214W (GNIS 2004)",
    "history": "Also known as KY 1860."
  },
  {
    "name": "Harlan Gas",
    "county": "Harlan",
    "state": "KY",
    "location": "365102N/0831818W (GNIS 2004). Just northwest of Harlan.",
    "history": "-"
  },
  {
    "name": "Harlan (town)",
    "county": "Harlan",
    "state": "KY",
    "location": "365035N/0831919W (GNIS 2004)",
    "history": "-"
  },
  {
    "name": "Harlan Road",
    "county": "Bell",
    "state": "KY",
    "location": "364451N/0834133W (Kentury Atlas and Gazetter on the Internet, 2005)",
    "history": "Also known as US 119."
  },
  {
    "name": "Capp Harlan Road",
    "county": "Monroe",
    "state": "KY",
    "location": "364212N/0854058W (Kentury Atlas and Gazetter on the Internet, 2005)",
    "history": "-"
  },
  {
    "name": "Harlan Avenue",
    "county": "Daviess",
    "state": "KY",
    "location": "374515N/0870826W (Kentury Atlas and Gazetter on the Internet, 2005)",
    "history": "-"
  },
  {
    "name": "Harlans Lane (road)",
    "county": "Hart",
    "state": "KY",
    "location": "371827N/0855722W (Kentury Atlas and Gazetter on the Internet, 2005)",
    "history": "-"
  },
  {
    "name": "Harlan Avenue (road)",
    "county": "Harlan",
    "state": "KY",
    "location": "365030N/0831921W (Kentury Atlas and Gazetter on the Internet, 2005)",
    "history": "-"
  },
  {
    "name": "Harlan Avenue (road)",
    "county": "Jefferson",
    "state": "KY",
    "location": "381205N/0854546W (Kentury Atlas and Gazetter on the Internet, 2005)",
    "history": "-"
  },
  {
    "name": "Harlan Gas Road (road)",
    "county": "Harlan",
    "state": "KY",
    "location": "365103N/0831809W (Kentury Atlas and Gazetter on the Internet, 2005)",
    "history": "-"
  },
  {
    "name": "Harlan Jones Road (road)",
    "county": "Henry",
    "state": "KY",
    "location": "383258N/0851228W (Kentury Atlas and Gazetter on the Internet, 2005)",
    "history": "-"
  },
  {
    "name": "Harlan Street (road)",
    "county": "Boyd",
    "state": "KY",
    "location": "382808N/0823910W (Kentury Atlas and Gazetter on the Internet, 2005)",
    "history": "-"
  },
  {
    "name": "Harlan Street (road)",
    "county": "Grant",
    "state": "KY",
    "location": "384652N/0843617W (Kentury Atlas and Gazetter on the Internet, 2005)",
    "history": "-"
  },
  {
    "name": "Harlan Street (road)",
    "county": "Harlan",
    "state": "KY",
    "location": "365147N/0831140W (Kentury Atlas and Gazetter on the Internet, 2005)",
    "history": "-"
  },
  {
    "name": "Harlan Street (road)",
    "county": "Knox",
    "state": "KY",
    "location": "365742N/0840417W (Kentury Atlas and Gazetter on the Internet, 2005)",
    "history": "-"
  },
  {
    "name": "Harlan-Allen Road (road)",
    "county": "Breckinridge",
    "state": "KY",
    "location": "375358N/0862116W (Kentury Atlas and Gazetter on the Internet, 2005)",
    "history": "-"
  },
  {
    "name": "Harlan-Clover Fork Road",
    "county": "Harlan",
    "state": "KY",
    "location": "365115N/0831759W (Kentury Atlas and Gazetter on the Internet, 2005)",
    "history": "-"
  },
  {
    "name": "Harlan Crossroads (place?)",
    "county": "Monroe",
    "state": "KY",
    "location": "363911N/0854214W (GNIS 2004).\nNear Tompkinsville.",
    "history": "-"
  },
  {
    "name": "Harlan County",
    "county": "Harlan",
    "state": "KY",
    "location": "-",
    "history": "Population 36,574 (1990)"
  },
  {
    "name": "Harlands Bayou",
    "county": "Avoyelles",
    "state": "LA",
    "location": "305700N/0914928W (GNIS 2004)",
    "history": "-"
  },
  {
    "name": "none",
    "county": "-",
    "state": "MA",
    "location": "(GNIS/2004)",
    "history": "-"
  },
  {
    "name": "Harlan Square (subdivision)",
    "county": "Harford",
    "state": "MD",
    "location": "Near Bel Air. (gazetteer.hometownlocator.com)",
    "history": "-"
  },
  {
    "name": "Harlan Cemetery",
    "county": "Frederick",
    "state": "MD",
    "location": "Near Woodsboro.",
    "history": "-"
  },
  {
    "name": "Harlan-Wilson Mill (historical)",
    "county": "Cecil",
    "state": "MD",
    "location": "-",
    "history": "-"
  },
  {
    "name": "none",
    "county": "-",
    "state": "MD",
    "location": "(GNIS/2004)",
    "history": "-"
  },
  {
    "name": "Harlan Swamp",
    "county": "Cumberland",
    "state": "ME",
    "location": "440721N/0703322W (GNIS 2004)",
    "history": "-"
  },
  {
    "name": "Harlan Cemetery",
    "county": "Manistee",
    "state": "MI",
    "location": "442712N/0854919W (GNIS 2004). Northwest of Mesick.",
    "history": "-"
  },
  {
    "name": "Harlan Drain",
    "county": "Sanilac",
    "state": "MI",
    "location": "431949N/0824212W (GNIS 2004)",
    "history": "-"
  },
  {
    "name": "Harlan School",
    "county": "Oakland",
    "state": "MI",
    "location": "423412N/0831229W (GNIS 2004). Northeast of Birmingham.",
    "history": "-"
  },
  {
    "name": "Harlan",
    "county": "Wexford",
    "state": "MI",
    "location": "442725N/0854910W (GNIS 2004)",
    "history": "-"
  },
  {
    "name": "Harlan Lake",
    "county": "Cass",
    "state": "MN",
    "location": "462200N/0943029W (GNIS 2004)",
    "history": "-"
  },
  {
    "name": "Harlan Branch (stream)",
    "county": "Cooper",
    "state": "MO",
    "location": "384355N/0930040W (GNIS 2004)",
    "history": "-"
  },
  {
    "name": "Harlan Cemetery",
    "county": "Clinton",
    "state": "MO",
    "location": "394013N/0941647W (GNIS 2004). Southwest of Cameron.",
    "history": "-"
  },
  {
    "name": "Harlan School (abandoned)",
    "county": "Moniteau",
    "state": "MO",
    "location": "383758N/0922920W (GNIS 2004).\nEast of California.",
    "history": "-"
  },
  {
    "name": "Harlan School (historical)",
    "county": "Sullivan",
    "state": "MO",
    "location": "401937N/0925449W (GNIS 2004). Northeast of Green City.",
    "history": "-"
  },
  {
    "name": "Harlan Junction",
    "county": "Saint Clair",
    "state": "MO",
    "location": "-",
    "history": "-"
  },
  {
    "name": "Harlan Stump Dam",
    "county": "Lawrence",
    "state": "MO",
    "location": "Southwest of Lockwood.",
    "history": "-"
  },
  {
    "name": "Harlin House (building)",
    "county": "Ozark",
    "state": "MO",
    "location": "Town of Gainesville.",
    "history": "John c. Harlin built the house that is now being restored. (Harlan Family web site.)"
  },
  {
    "name": "Harlan (historical)",
    "county": "Noxubee",
    "state": "MS",
    "location": "330534N/0882500W (GNIS 2004). Near McLeod.",
    "history": "-"
  },
  {
    "name": "Harlan Post Office (historical)",
    "county": "Noxubee",
    "state": "MS",
    "location": "(GNIS 2004)",
    "history": "Post office from 1883-1899."
  },
  {
    "name": "Harland Cemetery",
    "county": "Carroll",
    "state": "MS",
    "location": "332338N/0900103W (GNIS 2004). Southeast of Greenwood.",
    "history": "-"
  },
  {
    "name": "Harland Creek Church",
    "county": "Holmes",
    "state": "MS",
    "location": "325936N/0900930W (GNIS 2004). Northwest of Pickens.",
    "history": "-"
  },
  {
    "name": "Harland Creek",
    "county": "Holmes",
    "state": "MS",
    "location": "330648N/0901029W (GNIS 2004)",
    "history": "-"
  },
  {
    "name": "Harlands Creek Cemetery",
    "county": "Holmes",
    "state": "MS",
    "location": "25938N/0900933W (GNIS 2004). Northwest of Pickens. See \"Harland Creek Church.",
    "history": "-"
  },
  {
    "name": "Harlan Creek",
    "county": "Ravalli",
    "state": "MT",
    "location": "460617N/1141103W (GNIS 2004)",
    "history": "-"
  },
  {
    "name": "Harlan Point",
    "county": "Ravalli",
    "state": "MT",
    "location": "Northeast of Darby.",
    "history": "-"
  },
  {
    "name": "Harlands Creek",
    "county": "Chatham",
    "state": "NC",
    "location": "353934N/0791516W (GNIS 2004)",
    "history": "-"
  },
  {
    "name": "none",
    "county": "Â ",
    "state": "ND",
    "location": "(GNIS/2004)",
    "history": "-"
  },
  {
    "name": "Harlan County Dam",
    "county": "Harlan",
    "state": "NE",
    "location": "400415N/0991239W (GNIS 2004)",
    "history": "-"
  },
  {
    "name": "Harlan County Lake (reservoir)",
    "county": "Harlan",
    "state": "NE",
    "location": "400400N/0991245W (GNIS 2004). Fed by Sappa Creek and Prairie Creek.",
    "history": "-"
  },
  {
    "name": "Harlan County",
    "county": "Harlan",
    "state": "NE",
    "location": "On state line with Kansas.",
    "history": "Population 3,810 (1990)"
  },
  {
    "name": "Harlan Post Office (historical)",
    "county": "Custer",
    "state": "NE",
    "location": "-",
    "history": "-"
  },
  {
    "name": "Harlan Post Office (historical)",
    "county": "Cherry",
    "state": "NE",
    "location": "-",
    "history": "-"
  },
  {
    "name": "Harlan Reservoir",
    "county": "Lancaster",
    "state": "NE",
    "location": "North of Hickman.",
    "history": "-"
  },
  {
    "name": "none",
    "county": "-",
    "state": "NH",
    "location": "(GNIS/2004)",
    "history": "-"
  },
  {
    "name": "none",
    "county": "-",
    "state": "NJ",
    "location": "(GNIS/2004)",
    "history": "-"
  },
  {
    "name": "Harlan Ditch (canal)",
    "county": "Valencia",
    "state": "NM",
    "location": "344633N/1064445W (GNIS 2004)",
    "history": "-"
  },
  {
    "name": "Harlan Lateral (canal)",
    "county": "Valencia",
    "state": "NM",
    "location": "344426N/1064531W (GNIS 2004)",
    "history": "-"
  },
  {
    "name": "Harlan Tank",
    "county": "Lincoln",
    "state": "NM",
    "location": "332342N/1053410W (GNIS 2004)",
    "history": "-"
  },
  {
    "name": "Harlan Trail Camp",
    "county": "Colfax",
    "state": "NM",
    "location": "363056N/1050036W (GNIS 2004)",
    "history": "-"
  },
  {
    "name": "Harlan Vigil (locale)",
    "county": "Harding",
    "state": "NM",
    "location": "-",
    "history": "-"
  },
  {
    "name": "Harlans Peak",
    "county": "Esmeralda",
    "state": "NV",
    "location": "373059N/1173845W (GNIS 2004). Southern part of county perhaps near Lida or Gold Point.",
    "history": "-"
  },
  {
    "name": "none",
    "county": "-",
    "state": "NY",
    "location": "(GNIS/2004)",
    "history": "-"
  },
  {
    "name": "Harlan Butlerville School",
    "county": "Warren",
    "state": "OH",
    "location": "391822N/0840508W (GNIS 2004)",
    "history": "-"
  },
  {
    "name": "Harlan Park",
    "county": "Butler",
    "state": "OH",
    "location": "393140N/0842315W (GNIS 2004). Near Middletown.",
    "history": "-"
  },
  {
    "name": "Harlans Run",
    "county": "Warren",
    "state": "OH",
    "location": "392738N/0840126W (GNIS 2004)",
    "history": "-"
  },
  {
    "name": "Harlan Cemetery",
    "county": "Ashland",
    "state": "OH",
    "location": "404428N/0821903W. Southwest of Hayesville.",
    "history": "-"
  },
  {
    "name": "Harlan Township",
    "county": "Warren",
    "state": "OH",
    "location": "Southeast of Morrow.",
    "history": "-"
  },
  {
    "name": "Harlan Township",
    "county": "Washington",
    "state": "OH",
    "location": "?",
    "history": "-"
  },
  {
    "name": "Harland Post Office (historical)",
    "county": "Ottawa",
    "state": "OK",
    "location": "-",
    "history": "-"
  },
  {
    "name": "none",
    "county": "-",
    "state": "OK",
    "location": "(GNIS/2004)",
    "history": "-"
  },
  {
    "name": "Harlan (village)",
    "county": "Lincoln",
    "state": "OR",
    "location": "4433224N/1234131W (GNIS 2004)",
    "history": "Named for James R. Harlan, the first postmaster, in around 1890."
  },
  {
    "name": "Harlan Cemetery",
    "county": "Lincoln",
    "state": "OR",
    "location": "443220N/1234105W (GNIS 2004). Town of Harlan.",
    "history": "-"
  },
  {
    "name": "Harlan Creek",
    "county": "Douglas",
    "state": "OR",
    "location": "435112N/1235505W (GNIS 2004)",
    "history": "-"
  },
  {
    "name": "Harland Slough",
    "county": "Polk",
    "state": "OR",
    "location": "445716N/1231455W (GNIS 2005)",
    "history": "-"
  },
  {
    "name": "Harlan Post Office (historical)",
    "county": "Lincoln",
    "state": "OR",
    "location": "Town of Harlan.",
    "history": "-"
  },
  {
    "name": "Harlan",
    "county": "Clarion",
    "state": "PA",
    "location": "410756N/0791249W (GNIS 2004)",
    "history": "-"
  },
  {
    "name": "Harlansburg",
    "county": "Lawrence",
    "state": "PA",
    "location": "410127N/0801120W (GNIS 2004)",
    "history": "-"
  },
  {
    "name": "none",
    "county": "-",
    "state": "RI",
    "location": "(GNIS/2004)",
    "history": "-"
  },
  {
    "name": "none",
    "county": "-",
    "state": "SC",
    "location": "(GNIS/2004)",
    "history": "-"
  },
  {
    "name": "none",
    "county": "-",
    "state": "SD",
    "location": "(GNIS/2004)",
    "history": "-"
  },
  {
    "name": "Harlan Bend",
    "county": "Maury",
    "state": "TN",
    "location": "353959N/0871616W (GNIS 2004)",
    "history": "-"
  },
  {
    "name": "Harlan Branch (stream)",
    "county": "Maury",
    "state": "TN",
    "location": "353730N/0871319W (GNIS 2004)",
    "history": "-"
  },
  {
    "name": "Harlan Kelley Mine",
    "county": "Maury",
    "state": "TN",
    "location": "354002N/0870800W (GNIS 2004)",
    "history": "-"
  },
  {
    "name": "Harlan Knobs (ridge)",
    "county": "Hawkins",
    "state": "TN",
    "location": "362734N/0825801W (GNIS 2004)",
    "history": "-"
  },
  {
    "name": "Harlan Mountain",
    "county": "Monroe",
    "state": "TN",
    "location": "352636N/0841324W (GNIS 2004)",
    "history": "-"
  },
  {
    "name": "Harlan Tank Farm",
    "county": "Nueces",
    "state": "TX",
    "location": "274106N/0974958W (GNIS 2004)",
    "history": "-"
  },
  {
    "name": "Harland Canyon",
    "county": "Val Verde",
    "state": "TX",
    "location": "295857N/1011024W (GNIS 2004)",
    "history": "-"
  },
  {
    "name": "Harlandale Creek",
    "county": "Bexar",
    "state": "TX",
    "location": "292013N/0982853W (GNIS 2004)",
    "history": "-"
  },
  {
    "name": "Harlandale High School",
    "county": "Bexar",
    "state": "TX",
    "location": "292153N/0983006W (GNIS 2004)",
    "history": "-"
  },
  {
    "name": "Harlandale Junior High School",
    "county": "Bexar",
    "state": "TX",
    "location": "292150N/0982953W (GNIS 2004)",
    "history": "-"
  },
  {
    "name": "Harlandale Park",
    "county": "Bexar",
    "state": "TX",
    "location": "292116N/0982942W (GNIS 2004)",
    "history": "-"
  },
  {
    "name": "none",
    "county": "-",
    "state": "UT",
    "location": "(GNIS/2004)",
    "history": "-"
  },
  {
    "name": "none",
    "county": "-",
    "state": "VA",
    "location": "(GNIS/2004)",
    "history": "-"
  },
  {
    "name": "none",
    "county": "-",
    "state": "VT",
    "location": "(GNIS/2004)",
    "history": "-"
  },
  {
    "name": "Harlan Creek",
    "county": "King",
    "state": "WA",
    "location": "474636N/1211810W (GNIS/2004)",
    "history": "-"
  },
  {
    "name": "none",
    "county": "-",
    "state": "WI",
    "location": "(GNIS/2004)",
    "history": "-"
  },
  {
    "name": "Harlan Iron Springs",
    "county": "Tucker",
    "state": "WV",
    "location": "Southwest of Parsons.",
    "history": "-"
  },
  {
    "name": "Harlan Run (stream)",
    "county": "Berkeley",
    "state": "WV",
    "location": "393510N/0775656W (GNIS/2004)",
    "history": "-"
  },
  {
    "name": "Harlan Spring (spring)",
    "county": "Berkeley",
    "state": "WV",
    "location": "393257N/0775719W (GNIS/2004)",
    "history": "-"
  },
  {
    "name": "Harland Cemetery",
    "county": "Wetzel",
    "state": "WV",
    "location": "394004N/0804032W (GNIS/2004)",
    "history": "-"
  },
  {
    "name": "Harland Ridge",
    "county": "Wetzel",
    "state": "WV",
    "location": "394016N/0803941W (GNIS/2004)",
    "history": "-"
  },
  {
    "name": "Harlan Post Office (historical)",
    "county": "Doddridge",
    "state": "WV",
    "location": "-",
    "history": "-"
  },
  {
    "name": "Harland Ford",
    "county": "Morgan",
    "state": "WV",
    "location": "East of Paw Paw.",
    "history": "-"
  },
  {
    "name": "Harland Ridge",
    "county": "Wetzel",
    "state": "WV",
    "location": "East of New Martinsville.",
    "history": "-"
  },
  {
    "name": "Harland Flat",
    "county": "Converse",
    "state": "WY",
    "location": "431230N/1054156W (GNIS/2004)",
    "history": "-"
  }
]
